{    "waypoint": [        {            "id": "0",            "title": "ECG",            "snippet": "Engineering Center G",            "lat": "33.419999999999995",            "long": "-111.93194444444445"        },        {            "id": "1",            "title": "ECF",            "snippet": "Engineering Tutoring Center",            "lat": "33.419710",            "long": "-111.932590"        },        {            "id": "2",            "title": "PSA",            "snippet": "Physical Sciences",            "lat": "33.420298",            "long": "-111.932593"        },        {            "id": "3",            "title": "Math Center",            "snippet": "Math Tutoring Center",            "lat": "33.420298",            "long": "-111.931841"        },        {            "id": "4",            "title": "ERC",            "snippet": "Engineering Research Center",            "lat": "33.420056",            "long": "-111.931327"        },        {            "id": "5",            "title": "NOBEL",            "snippet": "Nobel Library & SCOB",            "lat": "33.419331",            "long": "-111.931273"        },        {            "id": "6",            "title": "ISTB1",            "snippet": "Interdisciplinary Science and Technology 1",            "lat": "33.419018",            "long": "-111.931369"        },        {            "id": "7",            "title": "ISTB4",            "snippet": "Interdisciplinary Science and Technology 4",            "lat": "33.418447",            "long": "-111.931643"        },        {            "id": "8",            "title": "Palm Walk",            "snippet": "Palm Walk & Orange",            "lat": "33.418393",            "long": "-111.932694"        },        {            "id": "9",            "title": "CAVC",            "snippet": "College Avenue Commons",            "lat": "33.423276",            "long": "-111.935154"        },        {            "id": "10",            "title": "BYENG",            "snippet": "Brickyard Engineering",            "lat": "33.423732",            "long": "-111.939438"        },        {            "id": "11",            "title": "CTRPT",            "snippet": "Center Point",            "lat": "33.423802",            "long": "-111.940870"        }    ]}